[
  {
    "id": "001",
    "name": "燃えよ麺助",
    "latLng": {
      "lat": 34.696335,
      "lng": 135.48689
    }
  },
  {
    "id": "002",
    "name": "人類みな麺類",
    "latLng": {
      "lat": 34.725463,
      "lng": 135.499181
    }
  },
  {
    "id": "003",
    "name": "ラーメン人生JET",
    "latLng": {
      "lat": 34.698637,
      "lng": 135.486647
    }
  },
  {
    "id": "004",
    "name": "総大醤",
    "latLng": {
      "lat": 34.710304,
      "lng": 135.507695
    }
  },
  {
    "id": "005",
    "name": "ラーメン家 みつ葉",
    "latLng": {
      "lat": 34.692421,
      "lng": 135.731966
    }
  },
  {
    "id": "006",
    "name": "烈火 本店",
    "latLng": {
      "lat": 34.748931,
      "lng": 135.475763
    }
  },
  {
    "id": "007",
    "name": "群青",
    "latLng": {
      "lat": 34.710019,
      "lng": 135.512582
    }
  },
  {
    "id": "008",
    "name": "中華そば いぶき",
    "latLng": {
      "lat": 34.707547,
      "lng": 135.509922
    }
  },
  {
    "id": "009",
    "name": "中華そば 無限",
    "latLng": {
      "lat": 34.69663,
      "lng": 135.47216
    }
  },
  {
    "id": "010",
    "name": "彩色ラーメン きんせい総本家 夢風",
    "latLng": {
      "lat": 34.828435,
      "lng": 135.60315
    }
  },
  {
    "id": "011",
    "name": "麺屋 八海山",
    "latLng": {
      "lat": 34.853487,
      "lng": 135.616982
    }
  },
  {
    "id": "012",
    "name": "麺匠而今",
    "latLng": {
      "lat": 34.727874,
      "lng": 135.5568
    }
  },
  {
    "id": "013",
    "name": "極麺 青二犀",
    "latLng": {
      "lat": 34.765328,
      "lng": 135.533446
    }
  },
  {
    "id": "014",
    "name": "麺や 青雲志",
    "latLng": {
      "lat": 34.622521,
      "lng": 136.483616
    }
  },
  {
    "id": "015",
    "name": "烈志笑魚油 麺香房 三く",
    "latLng": {
      "lat": 34.693758,
      "lng": 135.485974
    }
  },
  {
    "id": "016",
    "name": "麺哲",
    "latLng": {
      "lat": 34.784835,
      "lng": 135.463407
    }
  },
  {
    "id": "017",
    "name": "らーめん弥七",
    "latLng": {
      "lat": 34.711282,
      "lng": 135.499696
    }
  },
  {
    "id": "018",
    "name": "らーめん颯人",
    "latLng": {
      "lat": 34.695737,
      "lng": 135.510028
    }
  },
  {
    "id": "019",
    "name": "麺屋 そにどり",
    "latLng": {
      "lat": 34.973983,
      "lng": 136.617343
    }
  },
  {
    "id": "020",
    "name": "ロックンビリーS1",
    "latLng": {
      "lat": 34.74822,
      "lng": 135.420927
    }
  },
  {
    "id": "021",
    "name": "麺と心 7",
    "latLng": {
      "lat": 34.639573,
      "lng": 135.511245
    }
  },
  {
    "id": "022",
    "name": "あいつのラーメン かたぐるま",
    "latLng": {
      "lat": 34.99282,
      "lng": 135.736196
    }
  },
  {
    "id": "023",
    "name": "和 dining 清乃",
    "latLng": {
      "lat": 34.078622,
      "lng": 135.130528
    }
  },
  {
    "id": "024",
    "name": "麺屋 たけ井 本店",
    "latLng": {
      "lat": 34.835569,
      "lng": 135.791763
    }
  },
  {
    "id": "025",
    "name": "つけ麺無心",
    "latLng": {
      "lat": 34.674597,
      "lng": 135.752122
    }
  },
  {
    "id": "026",
    "name": "麺屋NOROMA",
    "latLng": {
      "lat": 34.666327,
      "lng": 135.819132
    }
  }
]
