[
  {
    "id": "001",
    "name": "燃えよ麺助",
    "latLng": {
      "lat": 34.696335,
      "lng": 135.48689
    }
  },
  {
    "id": "002",
    "name": "人類みな麺類",
    "latLng": {
      "lat": 34.725463,
      "lng": 135.499181
    }
  },
  {
    "id": "003",
    "name": "ラーメン人生JET",
    "latLng": {
      "lat": 34.698637,
      "lng": 135.486647
    }
  },
  {
    "id": "004",
    "name": "総大醤",
    "latLng": {
      "lat": 34.710304,
      "lng": 135.507695
    }
  },
  {
    "id": "005",
    "name": "ラーメン家 みつ葉",
    "latLng": {
      "lat": 34.692421,
      "lng": 135.731966
    }
  }
]
